id,locality,locality_aka,state,country,iso3,continent,lat,lon,gmp,population_locality,population_country,traffic_mortality,literacy_rate,avg_height,med_age,gini,traffic_index,videos,time_of_day,start_time,end_time,vehicle_type,upload_date,channel
5318,Knutsford,[],,United Kingdom,GBR,Europe,53.3025402,-2.3716001,0.0,13191,69226000.0,3.2,0.0,171.07358305000002,40.6,32.4,38.46,[QEvKFt8C09w],[[0]],[[1890]],[[2166]],[0],[7012026],[UC0zZbJjxFQcQ5K_e9oV0qrQ]
5321,Louisville,[],KY,United States,USA,North America,38.2542376,-85.759407,0.0,624444,340110988.0,12.7,0.0,170.12460785,38.5,41.8,0.0,"[JHxx0KVxHJA,e6cuJ0vq5DI,2ojEIr9W98s,UItn6Jz5dzE,kaQ0HugoC-g,H5cfCVpoFL0,Cpe42Uz3m3k]","[[0],[0],[0],[0],[0],[0],[0]]","[[86],[17],[22],[158],[0],[11],[12]]","[[3308],[2898],[2343],[2304],[1243],[1340],[1530]]","[0,0,0,0,0,0,0]","[12102024,27092025,6092025,26082025,30112019,19102025,30092025]","[UCNUsndmoH9CCloc4Y7ACLKA,UC7vlbxrPUojPngACLxdz_dw,UC7vlbxrPUojPngACLxdz_dw,UC7vlbxrPUojPngACLxdz_dw,UCo9yDMRPdiVnJGjCwOOj5GQ,UCLoEZvMjnl-OfbjUR9MWb4Q,UCLoEZvMjnl-OfbjUR9MWb4Q]"
5345,Říčany,[Ricany],,Czechia,CZE,Europe,49.9919444,14.6542365,0.0,11329,10905028.0,5.9,,174.5750558,43.9,25.7,0.0,"[q6pHikFXOq0,F1kgQNpUWjk]","[[0],[0]]","[[1091],[0]]","[[1439],[251]]","[0,0]","[12022026,12022026]","[UCMnUBJzsS_KeEDY2LLqllYw,UCMnUBJzsS_KeEDY2LLqllYw]"
5369,Târgoviște,[Targoviște],,Romania,ROU,Europe,44.9267709,25.462816,0.0,66965,19051804.0,10.3,99.0199966430664,171.2771717,45.1,29.8,52.27,[w3uk3onN_5U],[[0]],[[3522]],[[3926]],[0],[20092025],[UC8_7cWET-AU1lUFc5OELpRQ]
5370,Adjud,[],,Romania,ROU,Europe,46.100503,27.181015,0.0,15178,19051804.0,10.3,99.0199966430664,171.2771717,45.1,29.8,66.67,[T8MTJzv-ITE],[[0]],[[14131]],[[14638]],[0],[26012024],[UCmamR9_p7riHgvy7RwSVmcg]
5373,Câmpulung Moldovenesc,[Campulung Moldovenesc],,Romania,ROU,Europe,47.5297764,25.5597482,0.0,19765,19051804.0,10.3,99.0199966430664,171.2771717,45.1,29.8,26.23,[SLbYownSi3E],"[[0,1]]","[[4359,4926]]","[[4873,6468]]",[0],[9122016],[UCQAs0-0XwaI6wKOLUDbzlrg]
5376,Bacău,[Bacau],,Romania,ROU,Europe,46.5560493,26.9153557,0.0,136087,19051804.0,10.3,99.0199966430664,171.2771717,45.1,29.8,40.62,"[Dm23Sx7ze9U,fiq3TW7haJU,jN6pouEDTRs,O8exPH9uNqE,kmt4INMDbEo,FjTaPXWCWrI,TGk7iRmhLpw,c0tEqkjim-k]","[[0],[0],[0],[0],[0],[0],[0],[0]]","[[22],[11],[0],[5],[16081],[0],[20],[0]]","[[1393],[2296],[1045],[675],[17006],[772],[931],[1007]]","[0,0,0,0,0,0,0,0]","[14052021,5032021,14042023,4092024,12062019,17062025,13042025,2092025]","[UCxysvEGb_V3ZsqwXOFF4BjQ,UCxysvEGb_V3ZsqwXOFF4BjQ,UCy3LLGk6JKYHTY2o0yQ6RWQ,UCKAi3ptGPivCTgqFmnY3gQQ,UCQAs0-0XwaI6wKOLUDbzlrg,UCEhMyuZ-Jmus51pDWLnj9aA,UCEhMyuZ-Jmus51pDWLnj9aA,UCEhMyuZ-Jmus51pDWLnj9aA]"
5379,Suceava,[],,Romania,ROU,Europe,47.646887,26.249771,0.0,84308,19051804.0,10.3,99.0199966430664,171.2771717,45.1,29.8,34.78,"[SLbYownSi3E,q6wOQOhXKHA,kmt4INMDbEo]","[[0],[0],[0]]","[[464],[878],[85]]","[[1279],[1283],[918]]","[0,0,0]","[9122016,19032019,12062019]","[UCQAs0-0XwaI6wKOLUDbzlrg,UCQAs0-0XwaI6wKOLUDbzlrg,UCQAs0-0XwaI6wKOLUDbzlrg]"
5381,Kavala,[],,Greece,GRC,Europe,40.9369224,24.4122766,0.0,54027,10405134.0,8.3,96.0699996948242,172.5364295,46.2,33.4,0.0,"[FMQyGmfO-Lk,l6DldfVAaS8]","[[0],[0]]","[[136],[46]]","[[1048],[1414]]","[0,0]","[9022024,3082024]","[UCUszl6VBXRTXa1T3QKIoj_Q,UC62XLEy4ZRTL2q8YzOJBDow]"
5411,Svētciems,[Svetciems],,Latvia,LVA,Europe,57.6997233,24.3741665,0.0,346,1866124.0,8.1,99.879997253418,174.98887274999998,45.2,34.0,0.0,[S7Yzetz1drg],[[0]],[[6434]],[[7419]],[0],[21092021],[UCB8pEsJ80lbb4X3_Mu6Krzw]
5450,Falkenberg,[],,Sweden,SWE,Europe,56.904894,12.4912926,0.0,24099,10569709.0,3.1,0.0,173.5653211,41.0,29.3,0.0,[mkG6DsKnBEE],[[0]],[[294]],[[1640]],[0],[5122025],[UC3Eauw3W60Nt5dGOeMYX_Nw]
5530,Bollebygd,[],,Sweden,SWE,Europe,57.667809,12.570395,0.0,9802,10569709.0,3.1,0.0,173.5653211,41.0,29.3,0.0,[ni7RIqnZ3Lg],[[0]],[[283]],[[778]],[0],[4122025],[UC3Eauw3W60Nt5dGOeMYX_Nw]
5579,Kinna,[],,Sweden,SWE,Europe,57.5080076,12.6970568,0.0,15019,10569709.0,3.1,0.0,173.5653211,41.0,29.3,0.0,[cU0w1U4PCNA],[[0]],[[22]],[[1082]],[0],[21122025],[UC3Eauw3W60Nt5dGOeMYX_Nw]
5582,Hyltebruk,[],,Sweden,SWE,Europe,56.9999142,13.2403039,0.0,3992,10569709.0,3.1,0.0,173.5653211,41.0,29.3,0.0,[JidO-W_sOoY],[[0]],[[81]],[[801]],[0],[13112025],[UC3Eauw3W60Nt5dGOeMYX_Nw]
5615,Gislaved,[],,Sweden,SWE,Europe,57.300935,13.53935,0.0,28936,10569709.0,3.1,0.0,173.5653211,41.0,29.3,0.0,[5ITLt2vwU3Q],[[0]],[[32]],[[619]],[0],[8112025],[UC3Eauw3W60Nt5dGOeMYX_Nw]
5625,Herceg Novi,[],,Montenegro,MNE,Europe,42.4517622,18.5367516,0.0,19536,623525.0,7.6,99.1500015258789,176.6315194,40.7,34.3,0.0,"[t9_ikVK0d28,IdylvxV6NPw,11A6z-uFL8Q,ENxACh71ulY]","[[0],[0],[0],[0]]","[[7390],[120],[1138],[456]]","[[8190],[748],[1313],[783]]","[0,0,0,0]","[6032024,22062023,1122025,15112025]","[UCkPN7BZ_oPyroFo4Pindxyg,UCHhqou8CmYuktpXZN0H91xA,UC9mH6WfmoNgUMKRJdaTnvRA,UC9mH6WfmoNgUMKRJdaTnvRA]"
5630,Kållered,[Kallered],,Sweden,SWE,Europe,57.6103737,12.0485103,0.0,7961,10569709.0,3.1,0.0,173.5653211,41.0,29.3,0.0,[y_CKNqI-sFo],[[0]],[[90]],[[1405]],[0],[4042026],[UC3Eauw3W60Nt5dGOeMYX_Nw]
5636,Mellerud,[],,Sweden,SWE,Europe,58.698527,12.45952,0.0,9052,10569709.0,3.1,0.0,173.5653211,41.0,29.3,0.0,[6vHb9gzbp20],[[0]],[[33]],[[740]],[0],[31012026],[UC3Eauw3W60Nt5dGOeMYX_Nw]
5678,Southend-on-Sea,[Southend on Sea],,United Kingdom,GBR,Europe,51.5388241,0.7128137,0.0,295310,69226000.0,3.2,0.0,171.07358305000002,40.6,32.4,55.0,"[WulD6fBK160,oYPInN62buk]","[[0],[0]]","[[0],[23]]","[[489],[931]]","[0,0]","[6072019,25102022]","[UCB_GfORcINzF9kqWAPejwwQ,UCX3_u4oCtjwve9TDqk_khyA]"
5684,Northampton,[],,United Kingdom,GBR,Europe,52.2343297,-0.9028043,0.0,245899,69226000.0,3.2,0.0,171.07358305000002,40.6,32.4,24.44,[5VPzQXf81oI],[[0]],[[0]],[[601]],[0],[8052025],[UC_3JyP2g8O22mFBcyWdvRgA]
5686,King's Lynn,[Kings Lynn],,United Kingdom,GBR,Europe,52.7538673,0.3954774,0.0,46093,69226000.0,3.2,0.0,171.07358305000002,40.6,32.4,52.63,[jFxl5ak0mOs],"[[1,1]]","[[0,339]]","[[314,724]]",[0],[15122023],[UC0zZbJjxFQcQ5K_e9oV0qrQ]
5689,Cromer,[],,United Kingdom,GBR,Europe,52.9311367,1.3012758,0.0,8801,69226000.0,3.2,0.0,171.07358305000002,40.6,32.4,0.0,[SxZszXAxtGY],[[0]],[[0]],[[1763]],[0],[28072023],[UC0zZbJjxFQcQ5K_e9oV0qrQ]
5701,Chesterfield,[],,United Kingdom,GBR,Europe,53.2352134,-1.4264097,0.0,113057,69226000.0,3.2,0.0,171.07358305000002,40.6,32.4,41.94,"[ei-eSqgvAP4,2jWbkHM25KA]","[[0],[0]]","[[0],[0]]","[[396],[1057]]","[0,0]","[23012025,29112024]","[UCGCT-O-gQkbXIG8njHX2-5A,UC0zZbJjxFQcQ5K_e9oV0qrQ]"
5704,Girdwood,[],AK,United States,USA,North America,60.9441989,-149.174104,0.0,2250,340110988.0,12.7,,170.12460785,38.5,41.8,0.0,"[qa_gdifbWPk,_sTlQPa0HNg,OGjOyIehd-0,dggN3fTLGAs]","[[0],[0],[0],[0]]","[[1733],[2613],[0],[13]]","[[1791],[2703],[174],[782]]","[0,0,0,0]","[8052016,30092017,6022022,18112017]","[UCHXnoadUyOCEgWg-wQaEdVQ,UCHXnoadUyOCEgWg-wQaEdVQ,UCHXnoadUyOCEgWg-wQaEdVQ,UCHXnoadUyOCEgWg-wQaEdVQ]"
5707,Zenica,[],,Bosnia and Herzegovina,BIH,Europe,44.199828,17.9093012,0.0,164423,3164253.0,13.5,99.1800003051758,174.97217735,44.4,33.0,0.0,"[kRllF4uxscQ,J9pmmu9CJ0c,xX1KOYaX9aU]","[[0],[0],[0]]","[[84],[3238],[12]]","[[594],[3481],[360]]","[0,0,0]","[11022022,2102023,16092021]","[UCjssxFZ_CcYelAtvwVyp3Sw,UCU2vUFFsJJEYbw9EoV17Qew,UCvRshg_QZfxdAXUfXa4V8yg]"
5708,Travnik,[],,Bosnia and Herzegovina,BIH,Europe,44.2259454,17.6661738,0.0,31127,3164253.0,13.5,99.1800003051758,174.97217735,44.4,33.0,0.0,[W4ZEnTcagBY],[[0]],[[1524]],[[1995]],[0],[6052024],[UCKPKkECp7Ad_GjQ8MFm1nXg]
5709,Visoko,[],,Bosnia and Herzegovina,BIH,Europe,43.9894986,18.1816434,0.0,17890,3164253.0,13.5,99.1800003051758,174.97217735,44.4,33.0,0.0,"[CUQRvTeOxU0,vTPG6ehOgck,zSOi0cqow6k]","[[0],[0],[0]]","[[0],[1468],[1438]]","[[376],[1550],[1522]]","[0,0,0]","[23112022,14062022,28122024]","[UCZ2veSIdBjYF6yq1NBK3ANw,UCU2vUFFsJJEYbw9EoV17Qew,UCU2vUFFsJJEYbw9EoV17Qew]"
5711,Sharjah,[],,United Arab Emirates,ARE,Asia,25.358298,55.423967,0.0,1800000,10986400.0,8.9,99.0299987792969,167.3037781,35.7,26.4,0.0,[SSJgMFgCK8o],[[0]],[[0]],[[1078]],[0],[8122024],[UCEaj0A9yL_p2DlEBTvR8jpw]
5738,Matlock,[],,United Kingdom,GBR,Europe,53.1374514,-1.5544694,0.0,14956,69226000.0,3.2,0.0,171.07358305000002,40.6,32.4,0.0,[5dDU0533q8Q],[[0]],[[0]],[[842]],[0],[17052020],[UCZs2dL39H6re5e6h8td2vgQ]
5747,Ras Al-Khaimah,[Ras Al Khaimah],,United Arab Emirates,ARE,Asia,25.7737705,55.938232,0.0,351943,10986400.0,8.9,99.0299987792969,167.3037781,35.7,26.4,15.62,[uUYhhAgS04U],[[0]],[[0]],[[1681]],[0],[29052021],[UCq9dKdIyez8f5A9B_wBrldg]
5761,Al Ain,[],,United Arab Emirates,ARE,Asia,24.2248697,55.7452211,0.0,846747,10986400.0,8.9,99.0299987792969,167.3037781,35.7,26.4,0.0,[uyAED4wMuuE],"[[1,1,1]]","[[10,2052,2800]]","[[1823,2614,3383]]",[0],[4092020],[UCkXhRd4JW25bT73yTx2swzA]
5766,Hotonj,[],,Bosnia and Herzegovina,BIH,Europe,43.8973661,18.3776937,0.0,4013,3164253.0,13.5,99.1800003051758,174.97217735,44.4,33.0,0.0,[ycYxBHznh3U],[[0]],[[365]],[[510]],[0],[14022021],[UCjssxFZ_CcYelAtvwVyp3Sw]
5779,Vogošća,[Vogosca],,Bosnia and Herzegovina,BIH,Europe,43.9018326,18.3432927,0.0,8180,3164253.0,13.5,99.1800003051758,174.97217735,44.4,33.0,0.0,[ycYxBHznh3U],[[0]],[[59]],[[357]],[0],[14022021],[UCjssxFZ_CcYelAtvwVyp3Sw]
5780,Hadžići,[Hadzici],,Bosnia and Herzegovina,BIH,Europe,43.8223256,18.2031453,0.0,4993,3164253.0,13.5,99.1800003051758,174.97217735,44.4,33.0,0.0,[cD2mhCsTqlw],[[0]],[[20]],[[102]],[0],[25012026],[UCI2ICOR8o5duyoq-UMJaVDw]
5782,Haskovo,[],,Bulgaria,BGR,Europe,41.936509,25.556264,0.0,67086,6441421.0,9.2,98.75,169.3713478,44.7,39.5,0.0,"[d2p1s3IXoQc,ACOY5j8WykA,62IYJinEiBY,dh-sJlr2_IM,uCgVahfu5C0,QQ0j5ZcqBRk,DWkEJIk0Eco,YUJ3tw7HgJg,V9tpVlHbGAw,eDtlxWDeUms,KKzMFnymmY8,ESOyI1kf_Fk,YOeN6yMZru0,epwYxOfH-00,h19dxwSBtUo,e-rT2lFTUy4,r2cgvgnCWfE,VNKSXr4qupY,Ws4go7Xen4I,9oE6jDUogCs,7Ath8v9Rq2w,C0N6qjaP2Os,5p-TKfiGFkY,KJjhU7-sQaw,J0dWQH9o90U,uA321-65_kI]","[[0],[0],[0],[0],[0],[0],[0],[0],[0],[0],[0],[0],[0],[0],[0],[0],[0],[0],[0],[0],[0],[0],[0],[0],[0,0],[0]]","[[0],[47],[0],[0],[0],[0],[0],[0],[0],[0],[0],[40],[60],[0],[0],[15],[0],[39],[25],[0],[20],[12],[16],[40],[0,403],[0]]","[[799],[1003],[555],[410],[654],[933],[505],[880],[550],[577],[347],[1220],[308],[742],[519],[405],[635],[397],[645],[346],[309],[640],[428],[505],[379,798],[344]]","[0,0,0,0,0,0,0,0,0,0,0,0,0,0,0,0,0,0,0,0,0,0,0,0,0,0]","[10012026,1022026,28012026,3022026,24012026,20122025,16012026,4022026,28012026,14122025,15112025,8012026,5112025,18012026,8112025,6012026,17122025,8022026,23012026,16012026,28012026,11022026,18012026,19012026,25012026,4022026]","[UCFNsYVv3PdnphjA_IxLwEgg,UCFNsYVv3PdnphjA_IxLwEgg,UCFNsYVv3PdnphjA_IxLwEgg,UCFNsYVv3PdnphjA_IxLwEgg,UCFNsYVv3PdnphjA_IxLwEgg,UCFNsYVv3PdnphjA_IxLwEgg,UCFNsYVv3PdnphjA_IxLwEgg,UCFNsYVv3PdnphjA_IxLwEgg,UCFNsYVv3PdnphjA_IxLwEgg,UCFNsYVv3PdnphjA_IxLwEgg,UCFNsYVv3PdnphjA_IxLwEgg,UCFNsYVv3PdnphjA_IxLwEgg,UCFNsYVv3PdnphjA_IxLwEgg,UCFNsYVv3PdnphjA_IxLwEgg,UCFNsYVv3PdnphjA_IxLwEgg,UCFNsYVv3PdnphjA_IxLwEgg,UCFNsYVv3PdnphjA_IxLwEgg,UCFNsYVv3PdnphjA_IxLwEgg,UCFNsYVv3PdnphjA_IxLwEgg,UCFNsYVv3PdnphjA_IxLwEgg,UCFNsYVv3PdnphjA_IxLwEgg,UCFNsYVv3PdnphjA_IxLwEgg,UCFNsYVv3PdnphjA_IxLwEgg,UCFNsYVv3PdnphjA_IxLwEgg,UCFNsYVv3PdnphjA_IxLwEgg,UCFNsYVv3PdnphjA_IxLwEgg]"
5784,Binježevo,[],,Bosnia and Herzegovina,BIH,Europe,43.8452237,18.2220874,0.0,1481,3164253.0,13.5,99.1800003051758,174.97217735,44.4,33.0,9.43,"[bMAjx-CG8NQ,cD2mhCsTqlw]","[[0],[0]]","[[1065],[197]]","[[1120],[288]]","[0,0]","[28042025,25012026]","[UCKPKkECp7Ad_GjQ8MFm1nXg,UCI2ICOR8o5duyoq-UMJaVDw]"
5785,Tarčin,[Tarcin],,Bosnia and Herzegovina,BIH,Europe,43.7944053,18.0935706,0.0,1113,3164253.0,13.5,99.1800003051758,174.97217735,44.4,33.0,0.0,[bMAjx-CG8NQ],[[0]],[[1982]],[[2094]],[0],[28042025],[UCKPKkECp7Ad_GjQ8MFm1nXg]
5786,Kobilja Glava,[],,Bosnia and Herzegovina,BIH,Europe,43.8840515,18.3854093,0.0,3666,3164253.0,13.5,99.1800003051758,174.97217735,44.4,33.0,17.78,[ycYxBHznh3U],[[0]],[[511]],[[545]],[0],[14022021],[UCjssxFZ_CcYelAtvwVyp3Sw]
5787,Boleč,[Bolec],,Serbia,SRB,Europe,44.7285345,20.6041947,0.0,5750,6586476.0,7.5,99.6100006103516,174.51188975,43.7,32.8,0.0,[lYVc5Tyh3lE],[[0]],[[1635]],[[1731]],[0],[21082024],[UCh3Ly56VUf1b6DBcuAgyxnA]
5788,Grocka,[],,Serbia,SRB,Europe,44.6709248,20.7170219,0.0,8154,6586476.0,7.5,99.6100006103516,174.51188975,43.7,32.8,0.0,[jVjDEZOmH-A],[[0]],[[2484]],[[2972]],[0],[10102024],[UCh3Ly56VUf1b6DBcuAgyxnA]
5789,Gotse Delchev,[],,Bulgaria,BGR,Europe,41.5733011,23.7281082,0.0,20522,6441421.0,9.2,98.75,169.3713478,44.7,39.5,0.0,[XL2z4QuJ5T8],"[[1,0]]","[[10651,10322]]","[[11022,10650]]",[0],[5012026],[UCBheoKw19Cly7iZ2JVphS0w]
5790,Srinagar,[],JK,India,IND,Asia,34.0747444,74.8204443,0.0,975857,1450935791.0,15.6,88.3099975585938,160.83672074999998,29.5,25.5,22.22,"[tvGYYAit92s,WIMwMD4kz8E,WYcy0nwd72E]","[[0,0,0,0,0],[0],[0]]","[[11,135,264,373,556],[22],[34]]","[[118,237,344,550,749],[1368],[665]]","[0,0,0]","[25082023,17092023,12092023]","[UCKbZ7rmoiU9H5NiyCgnZzHg,UCnnm5J0pD_KTvrqEpMPOmXA,UCnnm5J0pD_KTvrqEpMPOmXA]"
5791,Candolim,[],GA,India,IND,Asia,15.5201532,73.7659422,0.0,9197,1450935791.0,15.6,88.3099975585938,160.83672074999998,29.5,25.5,0.0,[9Zk9OS-LJ1Y],[[0]],[[25]],[[512]],[0],[23112024],[UCnnm5J0pD_KTvrqEpMPOmXA]
5792,Panaji,[Panjim],GA,India,IND,Asia,15.4989946,73.8282141,0.0,70991,1450935791.0,15.6,88.3099975585938,160.83672074999998,29.5,25.5,0.0,"[HiFICtLdqQo,3S4-BjYRiyM,QD1Yf5EJCrY]","[[0],[0],[0]]","[[20],[20],[22]]","[[723],[646],[700]]","[0,0,0]","[17112024,8112024,9112024]","[UCnnm5J0pD_KTvrqEpMPOmXA,UCnnm5J0pD_KTvrqEpMPOmXA,UCnnm5J0pD_KTvrqEpMPOmXA]"
5793,Pahalgam,[],JK,India,IND,Asia,34.0144859,75.3285164,0.0,70692,1450935791.0,15.6,88.3099975585938,160.83672074999998,29.5,25.5,0.0,[hYpiRya2c7g],[[0]],[[60]],[[868]],[0],[12102023],[UCnnm5J0pD_KTvrqEpMPOmXA]
5794,Matheran,[],MH,India,IND,Asia,18.9901544,73.2700191,0.0,5287,1450935791.0,15.6,88.3099975585938,160.83672074999998,29.5,25.5,0.0,[LRbv53GXsVs],[[0]],[[30]],[[1015]],[0],[27082022],[UCnnm5J0pD_KTvrqEpMPOmXA]
5795,Lonavala,[],MH,India,IND,Asia,18.7503694,73.4069436,0.0,58562,1450935791.0,15.6,88.3099975585938,160.83672074999998,29.5,25.5,22.73,"[z7GMtr1L-28,06czvwgzRm4]","[[0],[0]]","[[0],[28]]","[[1356],[930]]","[0,0]","[20082022,26082021]","[UCnnm5J0pD_KTvrqEpMPOmXA,UCnnm5J0pD_KTvrqEpMPOmXA]"
5796,Diriyah,[],,Saudi Arabia,SAU,Asia,26.1938383,42.5199487,0.0,96000,35300280.0,35.9,98.5800018310547,164.75159845000002,32.4,,0.0,[bo74SnGEwvk],[[0]],[[0]],[[736]],[0],[5072022],[UCnnm5J0pD_KTvrqEpMPOmXA]
5797,Udaipur,[],RJ,India,IND,Asia,24.578721,73.6862571,0.0,451100,1450935791.0,15.6,88.3099975585938,160.83672074999998,29.5,25.5,0.0,"[joVFO9wj6ss,z3hJpR9LLio,3NuB848jwHo,j6hj5_nK96s,XIDrWO1mClQ,obIUoAV456E]","[[0],[0],[0],[0],[1],[0]]","[[0],[0],[17],[0],[14],[0]]","[[766],[625],[585],[740],[606],[860]]","[0,0,0,0,0,0]","[13012022,31122021,23122021,21122021,16122021,14122021]","[UCnnm5J0pD_KTvrqEpMPOmXA,UCnnm5J0pD_KTvrqEpMPOmXA,UCnnm5J0pD_KTvrqEpMPOmXA,UCnnm5J0pD_KTvrqEpMPOmXA,UCnnm5J0pD_KTvrqEpMPOmXA,UCnnm5J0pD_KTvrqEpMPOmXA]"
5798,Old Orchard Beach,[],ME,United States,USA,North America,43.517684,-70.37878,0.0,8624,340110988.0,12.7,,170.12460785,38.5,41.8,0.0,[FcGKyC-j-ts],[[0]],[[14]],[[595]],[0],[30092022],[UCfQrcFY4WDdZbYkUlsvci8g]
5799,Provincetown,[],MA,United States,USA,North America,42.0525612,-70.1858639,0.0,3664,340110988.0,12.7,,170.12460785,38.5,41.8,0.0,[2FNJtJLXFW0],[[0]],[[13]],[[406]],[4],[24092022],[UCfQrcFY4WDdZbYkUlsvci8g]
6421,Nebljusi,[],,Croatia,HRV,Europe,44.6631006,15.9442275,0.0,111,3866200.0,7.9,99.3199996948242,173.78099245,44.8,30.1,0.0,[0qwgwDpPNoU],[[0]],[[2939]],[[3092]],[0],[30092023],[UCKPKkECp7Ad_GjQ8MFm1nXg]
6540,Newport News,[],VA,United States,USA,North America,36.9775016,-76.42977,0.0,186247,340110988.0,12.7,,170.12460785,38.5,41.8,0.0,[OyqyUZCFSSQ],[[0]],[[0]],[[1899]],[0],[24042021],[UCo9yDMRPdiVnJGjCwOOj5GQ]
6541,Longport,[],NJ,United States,USA,North America,39.3142827,-74.5248756,0.0,886,340110988.0,12.7,,170.12460785,38.5,41.8,0.0,[X1UKbFCZi3k],[[0]],[[18]],[[2077]],[0],[28012023],[UC7vlbxrPUojPngACLxdz_dw]
6542,Belmar,[],NJ,United States,USA,North America,40.1784471,-74.0218037,0.0,5712,340110988.0,12.7,,170.12460785,38.5,41.8,20.0,[amIuqh3GMZk],[[0]],[[18]],[[485]],[0],[19082022],[UC7vlbxrPUojPngACLxdz_dw]
6543,Point Pleasant,[],NJ,United States,USA,North America,40.0831714,-74.0681931,0.0,19863,340110988.0,12.7,,170.12460785,38.5,41.8,22.0,"[SAwyzvP2Y8g,0DrYrqnTEOw,sqdPt-OE0k4]","[[0],[0],[0]]","[[17],[17],[17]]","[[1777],[2103],[578]]","[0,0,0]","[13072022,12072022,11072022]","[UC7vlbxrPUojPngACLxdz_dw,UC7vlbxrPUojPngACLxdz_dw,UC7vlbxrPUojPngACLxdz_dw]"
6544,Long Branch,[],NJ,United States,USA,North America,40.3042778,-73.9923596,0.0,30941,340110988.0,12.7,,170.12460785,38.5,41.8,22.22,[oXhi18aGo6I],[[0]],[[30]],[[1732]],[0],[1042022],[UC7vlbxrPUojPngACLxdz_dw]
6545,Şamaxı,[Shamakhi],,Azerbaijan,AZE,Asia,40.6338603,48.6382239,0.0,29403,10202830.0,6.7,99.8399963378906,167.68864175,33.8,26.6,0.0,[FITMHYNC__0],[[0]],[[0]],[[1463]],[0],[5092025],[UCo9yDMRPdiVnJGjCwOOj5GQ]
6546,İsmayıllı,[Ismailli],,Azerbaijan,AZE,Asia,40.788056,48.1485653,0.0,28776,10202830.0,6.7,99.8399963378906,167.68864175,33.8,26.6,0.0,[JPwq4ZKIwyQ],[[0]],[[0]],[[850]],[0],[25082025],[UCo9yDMRPdiVnJGjCwOOj5GQ]
6547,Fremantle,[],,Australia,AUS,Oceania,-32.0534086,115.7586172,0.0,8616,27196812.0,4.9,,171.7199627,38.9,33.8,0.0,[UsjxOtgoAtg],[[0]],[[1280]],[[1735]],[0],[13032022],[UCadmXVDmfOOrFXjqMdJCasw]
6548,Sinop,[],,Türkiye,TUR,Asia,41.6476377,34.9560137,0.0,34834,85518661.0,6.7,99.2600021362305,169.07893130000002,33.5,44.5,0.0,[2kwb532d_Ak],[[0]],[[0]],[[892]],[0],[3082025],[UCo9yDMRPdiVnJGjCwOOj5GQ]
6549,Çorum,[Corum],,Türkiye,TUR,Asia,40.548244,34.952335,0.0,269595,85518661.0,6.7,99.2600021362305,169.07893130000002,33.5,44.5,0.0,[cXZkmcUVBJA],[[0]],[[0]],[[1543]],[0],[27072025],[UCo9yDMRPdiVnJGjCwOOj5GQ]
6550,Zelienople,[],PA,United States,USA,North America,40.7924181,-80.1365478,0.0,3709,340110988.0,12.7,,170.12460785,38.5,41.8,0.0,[oLDDyGSpvRQ],[[0]],[[29]],[[1147]],[0],[21072025],[UCo9yDMRPdiVnJGjCwOOj5GQ]
6551,Gelibolu,[],,Türkiye,TUR,Europe,40.4054063,26.6722539,0.0,25178,85518661.0,6.7,99.2600021362305,169.07893130000002,33.5,44.5,0.0,[LxABWEmenfs],[[0]],[[0]],[[1178]],[0],[16072025],[UCo9yDMRPdiVnJGjCwOOj5GQ]
6552,Wilkinsburg,[],PA,United States,USA,North America,40.4418068,-79.8819609,0.0,15731,340110988.0,12.7,,170.12460785,38.5,41.8,16.67,[cR1uZv7jrT8],[[0]],[[0]],[[1822]],[0],[28062025],[UCo9yDMRPdiVnJGjCwOOj5GQ]
6553,Beaver Falls,[],PA,United States,USA,North America,40.7520097,-80.3192295,0.0,8661,340110988.0,12.7,,170.12460785,38.5,41.8,22.73,[PDAkZkmXl5Q],[[0]],[[0]],[[1421]],[0],[16062025],[UCo9yDMRPdiVnJGjCwOOj5GQ]
6560,Ölüdeniz,[],,Türkiye,TUR,Asia,36.5708861,29.1402546,0.0,2748,85518661.0,6.7,99.2600021362305,169.07893130000002,33.5,44.5,5.26,[KwggfwEqXFI],[[0]],[[293]],[[740]],[0],[18102024],[UCcDfOtOpLyZ3lD6huFuEjLw]
6561,Selimiye,[],,Türkiye,TUR,Asia,36.7664439,31.3892197,0.0,1308,85518661.0,6.7,99.2600021362305,169.07893130000002,33.5,44.5,0.0,[vjj4IYv5zCk],[[0]],[[34]],[[180]],[0],[16022022],[UCkptqe5qMgYLy3GIf3c3eiw]
6562,Bozburun,[],,Türkiye,TUR,Asia,39.988571,40.552506,0.0,288,85518661.0,6.7,99.2600021362305,169.07893130000002,33.5,44.5,0.0,[vjj4IYv5zCk],[[0]],[[1710]],[[2197]],[0],[16022022],[UCkptqe5qMgYLy3GIf3c3eiw]
6563,Ürgüp,[Urgup],,Türkiye,TUR,Asia,38.6300508,34.9116025,0.0,36695,85518661.0,6.7,99.2600021362305,169.07893130000002,33.5,44.5,0.0,[UtqBunEP5u0],[[0]],[[25]],[[673]],[0],[22102023],[UCDrDWDih9LJZuIDtt-nDkcg]
6683,Dewsbury,[],,United Kingdom,GBR,Europe,53.6909103,-1.6302142,0.0,56640,69281437.0,3.2,0.0,171.0,40.6,35.1,68.0,[-Qz4FhxL9vs],[[0]],[[0]],[[545]],[0],[14062024],[UCGCT-O-gQkbXIG8njHX2-5A]
6711,Wantage,[],,United Kingdom,GBR,Europe,51.5878072,-1.4249258,0.0,18505,69281437.0,3.2,0.0,171.0,40.6,35.1,47.83,[-QEjH1ldoas],[[0]],[[0]],[[663]],[0],[25012025],[UC0zZbJjxFQcQ5K_e9oV0qrQ]
6721,Sale,[],,United Kingdom,GBR,Europe,53.4244939,-2.318415,0.0,55689,69281437.0,3.2,0.0,171.0,40.6,35.1,21.43,[-OYuzLijnao],[[0]],[[0]],[[416]],[0],[7052024],[UC0zZbJjxFQcQ5K_e9oV0qrQ]
6724,Henley-on-Thames,[Henley on Thames],,United Kingdom,GBR,Europe,51.5375786,-0.9050287,0.0,11494,69281437.0,3.2,0.0,171.0,40.6,35.1,0.0,[-5HO7yVRu54],[[0]],[[0]],[[488]],[0],[13042024],[UC0zZbJjxFQcQ5K_e9oV0qrQ]
6739,Fairford,[],,United Kingdom,GBR,Europe,51.707034,-1.778065,0.0,3236,69281437.0,3.2,0.0,171.0,40.6,35.1,0.0,[-0XONoMHrcQ],[[1]],[[0]],[[730]],[0],[15072023],[UC0zZbJjxFQcQ5K_e9oV0qrQ]
6741,Frome,[],,United Kingdom,GBR,Europe,51.2294852,-2.3198467,0.0,26203,69281437.0,3.2,0.0,171.0,40.6,35.1,0.0,[-DOTsfkvTOE],[[0]],[[503]],[[1070]],[0],[2022023],[UC0zZbJjxFQcQ5K_e9oV0qrQ]
6775,Kisumu,[],,Kenya,KEN,Africa,-0.1029109,34.7541761,0.0,397957,53330978.0,28.3,82.23,165.0,20.1,40.8,0.0,[-qDUlz9P2i4],[[0]],[[83]],[[826]],[0],[6092025],[UCmKcQFlFJjc4ruSf2clPM-w]
6825,New Rochelle,[],NY,United States,USA,North America,40.9115386,-73.7826363,0.0,79846,340110988.0,12.7,0.0,170.0,38.5,41.4,0.0,[-qcVKKP8MaI],[[0]],[[8]],[[1183]],[0],[15102021],[UC1zxCRnsaTh-wZuy2ktCayg]
6836,Farmington,[],CT,United States,USA,North America,41.7198216,-72.8320435,0.0,10523,340110988.0,12.7,0.0,170.0,38.5,41.4,22.81,[-BD4DuIc2dg],[[0]],[[0]],[[1578]],[0],[21012021],[UC1zxCRnsaTh-wZuy2ktCayg]
6876,Bennington,[],VT,United States,USA,North America,42.8788667,-73.1968205,0.0,9074,340110988.0,12.7,0.0,170.0,38.5,41.4,0.0,[-lcE3HqazeI],[[0]],[[0]],[[3600]],[0],[24062022],[UCsDV9sL5ECqOx-LwzQ6Z2bg]
6921,Lancaster,[],SC,United States,USA,North America,34.719604,-80.771543,0.0,8921,340110988.0,12.7,0.0,170.0,38.5,41.4,0.0,[-0zXLCyiBfE],[[0]],[[0]],[[3720]],[0],[10102021],[UCsDV9sL5ECqOx-LwzQ6Z2bg]
6928,New Castle,[],DE,United States,USA,North America,39.6159851,-75.662956,0.0,5382,340110988.0,12.7,0.0,170.0,38.5,41.4,0.0,[-mhksbiJmhs],[[0]],[[0]],[[3727]],[0],[13092021],[UCsDV9sL5ECqOx-LwzQ6Z2bg]
6943,Rossville,[],GA,United States,USA,North America,34.983376,-85.28603,0.0,1137,340110988.0,12.7,0.0,170.0,38.5,41.4,0.0,[-j7L6K9eumI],[[0]],[[0]],[[637]],[0],[5072021],[UCCWC63_fLObjdnextgUjC7A]
6974,Bowdon,[],GA,United States,USA,North America,33.5378885,-85.2532818,0.0,131,340110988.0,12.7,0.0,170.0,38.5,41.4,0.0,[-GwRLlJsSZQ],[[0]],[[0]],[[986]],[0],[8062021],[UCCWC63_fLObjdnextgUjC7A]
6976,Roopville,[],GA,United States,USA,North America,33.4565021,-85.1307779,0.0,225,340110988.0,12.7,0.0,170.0,38.5,41.4,0.0,[-Et_ONbmELg],[[0]],[[0]],[[302]],[0],[8062021],[UCCWC63_fLObjdnextgUjC7A]
7044,Talmo,[],GA,United States,USA,North America,34.185106,-83.7207267,0.0,192,340110988.0,12.7,0.0,170.0,38.5,41.4,0.0,[-2JYmjGT7ps],[[0]],[[0]],[[488]],[0],[7092021],[UCCWC63_fLObjdnextgUjC7A]
7090,Turpan,[],,China,CHN,Asia,42.9425032,89.1795889,0.0,273385,1408280000.0,17.4,96.74,170.0,39.8,38.5,0.0,[-Cu4CkmupYE],[[0]],[[0]],[[912]],[0],[10012025],[UCZmohFzCdAAlAcHZgI0x-vw]
7103,Avalon,[],CA,United States,USA,North America,33.34221,-118.3272612,0.0,3799,340110988.0,12.7,0.0,170.0,38.5,41.4,0.0,[-TpR_O1z0ww],[[0]],[[541]],[[1311]],[0],[15032024],[UCwR7sfacuPghWn-KvVwxOeg]
7130,Ajaltoun,[],,Lebanon,LBN,Asia,33.9621683,35.6865307,0.0,10000,5490000.0,16.4,92.01,171.0,35.8,31.8,0.0,[-itrwyIUJRw],[[0]],[[0]],[[370]],[0],[24102022],[UC1BIkotySjcIF5osHlyMVkg]
7132,Bikfaya,[],,Lebanon,LBN,Asia,33.9199751,35.683555,0.0,20000,5490000.0,16.4,92.01,171.0,35.8,31.8,0.0,[S93XaCvUe8w],[[0]],[[46]],[[938]],[0],[15082024],[UC2dGXze4v8NNajuruhYdA9g]
7347,Bayannur,[],Inner Mongolia,China,CHN,Asia,40.739974,107.381755,0.0,1538715,1408280000.0,17.4,96.74,170.0,39.8,38.5,0.0,[LRZoZ2ykF8A],[[0]],[[8029]],[[8324]],[0],[1102025],[UCO2Didumj1w6uvidK0kSy9g]
7350,Tongliao,[],Inner Mongolia,China,CHN,Asia,43.6151762,122.2601035,0.0,261110,1408280000.0,17.4,96.74,170.0,39.8,38.5,0.0,"[6JY0cKmVu1M,-w7oQyieaBA,nmJIBHrSe2o,ZFtK7sWaDeo]","[[0],[0],[0],[0]]","[[60],[60],[60],[60]]","[[1080],[1025],[1877],[1463]]","[0,0,0,0]","[3032026,1032026,25022026,14022026]","[UClyLOM2Sfxu7rN5MetSE26Q,UClyLOM2Sfxu7rN5MetSE26Q,UClyLOM2Sfxu7rN5MetSE26Q,UClyLOM2Sfxu7rN5MetSE26Q]"
7351,Panjin,[],Liaoning,China,CHN,Asia,41.1796147,122.0524321,0.0,1389691,1408280000.0,17.4,96.74,170.0,39.8,38.5,0.0,"[CHnhWDoRaZE,ANubLoqaHnM,SaHhTsbe8t4,ajNomiqhqBM,bnei_ii6dcE,lM8318qyCzg]","[[0],[0],[0],[0],[0],[0]]","[[60],[60],[60],[60],[60],[60]]","[[1134],[1379],[1304],[609],[1411],[1562]]","[0,0,0,0,0,0]","[6012026,5012026,4012026,2012026,31122025,23122025]","[UClyLOM2Sfxu7rN5MetSE26Q,UClyLOM2Sfxu7rN5MetSE26Q,UClyLOM2Sfxu7rN5MetSE26Q,UClyLOM2Sfxu7rN5MetSE26Q,UClyLOM2Sfxu7rN5MetSE26Q,UClyLOM2Sfxu7rN5MetSE26Q]"
7352,Fuxin,[],Liaoning,China,CHN,Asia,42.012571,121.640313,0.0,1647280,1408280000.0,17.4,96.74,170.0,39.8,38.5,0.0,"[wDPVessi0TM,i0KyD9pPsxI,3eoXjsx4sh0,iA4agLyamc4,DY_QD-nGMgc,3YfYixDU2eY,FxrhZlT8C1M,N5Co0btu6IE,yXGBFPAk-oc,OZu6eWyM-GU,Fs4LH8QrD2A,pkj5QEkXK1E,hlmtczmqIhU]","[[0],[0],[0],[0],[0],[0],[0],[0],[0],[0],[0],[0],[0]]","[[60],[60],[60],[35],[35],[35],[35],[35],[35],[0],[0],[0],[0]]","[[706],[1310],[1843],[1273],[670],[778],[1228],[576],[679],[453],[524],[1152],[1160]]","[0,0,0,0,3,3,3,3,3,3,3,3,3]","[22122025,20122025,29112025,23102025,12092025,17082025,14082025,13082025,26072025,17082024,8082024,7082024,6082024]","[UClyLOM2Sfxu7rN5MetSE26Q,UClyLOM2Sfxu7rN5MetSE26Q,UClyLOM2Sfxu7rN5MetSE26Q,UClyLOM2Sfxu7rN5MetSE26Q,UClyLOM2Sfxu7rN5MetSE26Q,UClyLOM2Sfxu7rN5MetSE26Q,UClyLOM2Sfxu7rN5MetSE26Q,UClyLOM2Sfxu7rN5MetSE26Q,UClyLOM2Sfxu7rN5MetSE26Q,UClyLOM2Sfxu7rN5MetSE26Q,UClyLOM2Sfxu7rN5MetSE26Q,UClyLOM2Sfxu7rN5MetSE26Q,UClyLOM2Sfxu7rN5MetSE26Q]"
7353,Shenyang,[],Liaoning,China,CHN,Asia,41.8026095,123.4279105,0.0,7050000,1408280000.0,17.4,96.74,170.0,39.8,38.5,0.0,[P16s_C1cuk4],[[0]],[[60]],[[1114]],[0],[10122025],[UClyLOM2Sfxu7rN5MetSE26Q]
7354,Chaoyang,[],Liaoning,China,CHN,Asia,41.5754767,120.4390738,0.0,410005,1408280000.0,17.4,96.74,170.0,39.8,38.5,0.0,"[_ZGQKkUZb5M,rWtjv_s1mvQ,9iCLVo4Q6VQ,8WYb3OURv3M,ijtYh4FfMKU,T0DZDwdZRs0,o_zTCcuP9Lo,1I7MDED8xLQ,5HN2az2DVcU]","[[0],[0],[0],[0],[0],[0],[0],[0],[0]]","[[60],[35],[35],[35],[35],[35],[35],[35],[35]]","[[808],[909],[398],[333],[331],[748],[724],[1987],[1517]]","[0,0,0,0,0,0,0,0,0]","[7112025,21102025,18102025,14102025,9102025,8102025,3102025,1102025,27092025]","[UClyLOM2Sfxu7rN5MetSE26Q,UClyLOM2Sfxu7rN5MetSE26Q,UClyLOM2Sfxu7rN5MetSE26Q,UClyLOM2Sfxu7rN5MetSE26Q,UClyLOM2Sfxu7rN5MetSE26Q,UClyLOM2Sfxu7rN5MetSE26Q,UClyLOM2Sfxu7rN5MetSE26Q,UClyLOM2Sfxu7rN5MetSE26Q,UClyLOM2Sfxu7rN5MetSE26Q]"
7355,Huludao,[],Liaoning,China,CHN,Asia,40.7515443,120.8404789,0.0,944495,1408280000.0,17.4,96.74,170.0,39.8,38.5,0.0,"[S2U76radkAA,EjCVxO0yCL0,e4vezkyNpfo,1U1OakHzdHM,wq2ju7FkWMo,UKJPUda-o5c,V9bqoHFNYbo,bbA0h0W1ax0,IbGWBkyDKFk]","[[0],[0],[0],[0],[0],[0],[0],[0],[0]]","[[35],[35],[35],[35],[35],[35],[35],[40],[20]]","[[2053],[410],[1151],[1352],[459],[823],[794],[1759],[3963]]","[3,3,3,3,3,3,3,3,3]","[24092025,7092025,2092025,30082025,29082025,22082025,19082025,4082025,18042025]","[UClyLOM2Sfxu7rN5MetSE26Q,UClyLOM2Sfxu7rN5MetSE26Q,UClyLOM2Sfxu7rN5MetSE26Q,UClyLOM2Sfxu7rN5MetSE26Q,UClyLOM2Sfxu7rN5MetSE26Q,UClyLOM2Sfxu7rN5MetSE26Q,UClyLOM2Sfxu7rN5MetSE26Q,UClyLOM2Sfxu7rN5MetSE26Q,UClyLOM2Sfxu7rN5MetSE26Q]"
7356,Zaozhuang,[],Shandong,China,CHN,Asia,34.8108822,117.3178922,0.0,899753,1408280000.0,17.4,96.74,170.0,39.8,38.5,0.0,"[c9336dNyBoI,G1rN77zHTHU,cLXHzgXi-SQ,pbWPiGzW5nA,Y0Gyfd_b3uw,ZRrDBx51sso,OBJoOBIdyXo,Aw3qnEdzPBg,DgOuI4zUA1M,es9LwA4auCs,TW9GoRbFAs8,KFkBbxfQIAY,G5hiMVaFqpo,4iM2gw1hc_o,31sXNwr8Qhc,XlMstZTgVto,8di80F7d00M,bqO0_huQoKY,benu6_zp8-w,YPl_FmSLHkI,t8OaH2ltnkU,dJEzgDU7fgY,dC9NtdFIbWY,QI5gJZRM_Go,6eq3ZN6q_Og,T5kT-SFtyKA,Hzb6S9FOB5Y,kJPPy_vfo_A,D0_EtIMrzJ8,xsToyTMj5Ac,g3JsdSl-Svg,mIXJ9y6QLT4,8rUR-zJoFPg,Lv29XhPqJcM,Ic3_fAkFTyg,vNSh8TVCInE,MLcRT1rvQ_4,zR3AjicWHkw,u4HnF2TsxG8,91UUlIKElSA,FxgZsr87_zI,1ykCb0KHnB8,V9zCxR5YVOQ,HgQpuTpDYvM,J8-feASVik8,dWmc5PG7mN0,qIk_HNZXIsQ,Vi7-OZNPUrQ,MnWYbooDn0I,vOTGBjfu29Y,_MUpftIgTnQ,ZU0At4131KI,0voASnTMClw,kqByCOWHpo8,WV6u0h5rHCM,Q-wwIvqWub8,utorDmRoUo0,pE6TPHhIc-U,PtZg-smghZc,bLSSqG_k9rM,ezxkcRP3Vyo,B4Kz7W6A9ww,8vN82s_nVm8,kGZlO_QDUp8,v5TlsyWnpkQ,Ih9Eo4LW-Kk,YzL_bActJ-g,Jv60N1P_k5w,fnQrq7NHXkU,PWg0em7ZbgU,JRq_mgfOpt8,4ffdqd844vI,OgfUY-u9MZI,5xy1KABjmmA,-_5jH_MVpYU,SFIkvZ7fWXQ,nY_MxzUd-6U,3Ay4MXyitFU,_-0ve5R1uMM,DaGTcFVazxw,Um5QfNm7wDs,GHcKQIhbA1c,94uIzfd_D4M,m8oHVwPpThE,3FjFOQKB73U,9Xn-P0mv72U,YmAPlhfb2V0,9JrQOvMXrBQ,n8yViLc61hs,rmioy8DrVhI,7VhiCR43cjI,iRZ9ylcjp7w,aFt4lzXlZx8,I1XNYyGiXm0,xcOHUWiqVfc,HqFiVKwZbUg,hBypvCOMEyg,LkUp0_CsvrM,F3qF8s0AHwc,gsPee8l90Ao,O2Kcdj1YAMI,K4ogOipKpy0,KBRDbkdE8BQ,l-ItJIV5Cn8,G6XS7F_EM40,aOQ_5-zftfs,QbgUseeLE74,6dQMl2W3_OQ,dkNmFXRLiYc,L5yRuDDWlSw,h2H8qrJ_j8M,dSf56FBCFzA,WsO-ARPr3Ko,SaNwMflxa0A,dCUDBK2G0dk,bkr2fuvsBi4]","[[0],[0],[0],[0],[0],[0],[0],[0],[0],[0],[0],[0],[0],[0],[0],[0],[0],[0],[0],[0],[0],[0],[0],[0],[0],[0],[0],[0],[0],[0],[0],[0],[0],[0],[0],[0],[0],[0],[0],[0],[0],[0],[0],[0],[0],[0],[0],[0],[0],[0],[0],[0],[0],[0],[0],[0],[0],[0],[0],[0],[0],[0],[0],[0],[0],[0],[0],[0],[0],[0],[0],[0],[0],[0],[0],[0],[0],[0],[0],[0],[0],[0],[0],[0],[0],[0],[0],[0],[0],[0],[0],[0],[0],[0],[0],[0],[0],[0],[0],[0],[0],[0],[0],[0],[0],[0],[0],[0],[0],[0],[0],[0],[0],[0],[0,1],[1]]","[[50],[0],[0],[0],[0],[0],[0],[0],[0],[0],[0],[0],[0],[0],[0],[0],[0],[0],[0],[0],[0],[0],[0],[0],[0],[0],[0],[0],[0],[0],[0],[0],[0],[0],[0],[0],[0],[0],[0],[0],[0],[0],[0],[0],[0],[0],[0],[0],[0],[0],[0],[0],[0],[0],[0],[0],[0],[0],[0],[0],[0],[0],[5],[0],[0],[0],[0],[0],[0],[0],[0],[0],[0],[0],[0],[0],[0],[0],[0],[0],[0],[0],[0],[0],[0],[0],[0],[0],[0],[0],[0],[0],[0],[0],[0],[0],[0],[0],[0],[0],[0],[0],[0],[0],[0],[0],[0],[0],[0],[0],[0],[0],[0],[0],[0,926],[0]]","[[1856],[607],[1693],[1833],[1134],[1586],[1840],[1215],[1008],[3509],[6129],[1504],[949],[635],[565],[620],[680],[766],[910],[918],[843],[859],[1226],[1138],[1416],[1003],[860],[716],[582],[1288],[541],[449],[370],[311],[645],[570],[475],[431],[352],[302],[1441],[443],[430],[429],[368],[894],[897],[367],[404],[521],[522],[776],[706],[1567],[1310],[661],[595],[839],[789],[789],[703],[382],[341],[793],[818],[791],[748],[681],[793],[300],[672],[714],[322],[1063],[962],[810],[815],[359],[807],[741],[1555],[1301],[865],[834],[2045],[1794],[1264],[1233],[1268],[1433],[861],[758],[887],[884],[702],[719],[894],[897],[856],[829],[508],[476],[3550],[3259],[2346],[2113],[3741],[2925],[3872],[3200],[1210],[1031],[1357],[1585],[925,3420],[2575]]","[0,3,3,3,3,3,3,3,3,3,3,3,3,3,3,3,3,3,3,3,3,3,3,3,3,3,3,3,3,3,3,3,3,3,3,3,3,3,3,3,3,3,3,3,3,3,3,3,3,3,3,3,3,3,3,3,3,3,3,3,3,3,3,3,3,3,3,3,3,3,3,3,3,3,3,3,3,3,3,3,3,3,0,3,3,3,3,3,3,3,3,3,3,3,3,3,3,3,3,3,3,3,3,3,3,3,3,3,3,3,3,3,3,3,3,3]","[16062025,12102024,20032024,20032024,20032024,20032024,20032024,20032024,20032024,14032024,13032024,11032024,7032024,7032024,6032024,6032024,6032024,4032024,2032024,1032024,1032024,26022024,26022024,22022024,21022024,19022024,19022024,19022024,19022024,19022024,2022024,2022024,1022024,1022024,31012024,31012024,30012024,30012024,30012024,30012024,24012024,17012024,17012024,16012024,16012024,15012024,15012024,11012024,11012024,9012024,9012024,3012024,3012024,2012024,2012024,1012024,1012024,1012024,1012024,29122023,29122023,29122023,29122023,25122023,25122023,23122023,23122023,22122023,22122023,22122023,21122023,21122023,18122023,13122023,13122023,11122023,11122023,11122023,10122023,10122023,9122023,9122023,8122023,8122023,7122023,7122023,6122023,6122023,5122023,5122023,4122023,4122023,3122023,3122023,1122023,1122023,30112023,30112023,29112023,29112023,28112023,28112023,27112023,27112023,25112023,25112023,25112023,25112023,24112023,21112023,19112023,18112023,15112023,15112023,5102023,3102023]","[UClyLOM2Sfxu7rN5MetSE26Q,UClyLOM2Sfxu7rN5MetSE26Q,UClyLOM2Sfxu7rN5MetSE26Q,UClyLOM2Sfxu7rN5MetSE26Q,UClyLOM2Sfxu7rN5MetSE26Q,UClyLOM2Sfxu7rN5MetSE26Q,UClyLOM2Sfxu7rN5MetSE26Q,UClyLOM2Sfxu7rN5MetSE26Q,UClyLOM2Sfxu7rN5MetSE26Q,UClyLOM2Sfxu7rN5MetSE26Q,UClyLOM2Sfxu7rN5MetSE26Q,UClyLOM2Sfxu7rN5MetSE26Q,UClyLOM2Sfxu7rN5MetSE26Q,UClyLOM2Sfxu7rN5MetSE26Q,UClyLOM2Sfxu7rN5MetSE26Q,UClyLOM2Sfxu7rN5MetSE26Q,UClyLOM2Sfxu7rN5MetSE26Q,UClyLOM2Sfxu7rN5MetSE26Q,UClyLOM2Sfxu7rN5MetSE26Q,UClyLOM2Sfxu7rN5MetSE26Q,UClyLOM2Sfxu7rN5MetSE26Q,UClyLOM2Sfxu7rN5MetSE26Q,UClyLOM2Sfxu7rN5MetSE26Q,UClyLOM2Sfxu7rN5MetSE26Q,UClyLOM2Sfxu7rN5MetSE26Q,UClyLOM2Sfxu7rN5MetSE26Q,UClyLOM2Sfxu7rN5MetSE26Q,UClyLOM2Sfxu7rN5MetSE26Q,UClyLOM2Sfxu7rN5MetSE26Q,UClyLOM2Sfxu7rN5MetSE26Q,UClyLOM2Sfxu7rN5MetSE26Q,UClyLOM2Sfxu7rN5MetSE26Q,UClyLOM2Sfxu7rN5MetSE26Q,UClyLOM2Sfxu7rN5MetSE26Q,UClyLOM2Sfxu7rN5MetSE26Q,UClyLOM2Sfxu7rN5MetSE26Q,UClyLOM2Sfxu7rN5MetSE26Q,UClyLOM2Sfxu7rN5MetSE26Q,UClyLOM2Sfxu7rN5MetSE26Q,UClyLOM2Sfxu7rN5MetSE26Q,UClyLOM2Sfxu7rN5MetSE26Q,UClyLOM2Sfxu7rN5MetSE26Q,UClyLOM2Sfxu7rN5MetSE26Q,UClyLOM2Sfxu7rN5MetSE26Q,UClyLOM2Sfxu7rN5MetSE26Q,UClyLOM2Sfxu7rN5MetSE26Q,UClyLOM2Sfxu7rN5MetSE26Q,UClyLOM2Sfxu7rN5MetSE26Q,UClyLOM2Sfxu7rN5MetSE26Q,UClyLOM2Sfxu7rN5MetSE26Q,UClyLOM2Sfxu7rN5MetSE26Q,UClyLOM2Sfxu7rN5MetSE26Q,UClyLOM2Sfxu7rN5MetSE26Q,UClyLOM2Sfxu7rN5MetSE26Q,UClyLOM2Sfxu7rN5MetSE26Q,UClyLOM2Sfxu7rN5MetSE26Q,UClyLOM2Sfxu7rN5MetSE26Q,UClyLOM2Sfxu7rN5MetSE26Q,UClyLOM2Sfxu7rN5MetSE26Q,UClyLOM2Sfxu7rN5MetSE26Q,UClyLOM2Sfxu7rN5MetSE26Q,UClyLOM2Sfxu7rN5MetSE26Q,UClyLOM2Sfxu7rN5MetSE26Q,UClyLOM2Sfxu7rN5MetSE26Q,UClyLOM2Sfxu7rN5MetSE26Q,UClyLOM2Sfxu7rN5MetSE26Q,UClyLOM2Sfxu7rN5MetSE26Q,UClyLOM2Sfxu7rN5MetSE26Q,UClyLOM2Sfxu7rN5MetSE26Q,UClyLOM2Sfxu7rN5MetSE26Q,UClyLOM2Sfxu7rN5MetSE26Q,UClyLOM2Sfxu7rN5MetSE26Q,UClyLOM2Sfxu7rN5MetSE26Q,UClyLOM2Sfxu7rN5MetSE26Q,UClyLOM2Sfxu7rN5MetSE26Q,UClyLOM2Sfxu7rN5MetSE26Q,UClyLOM2Sfxu7rN5MetSE26Q,UClyLOM2Sfxu7rN5MetSE26Q,UClyLOM2Sfxu7rN5MetSE26Q,UClyLOM2Sfxu7rN5MetSE26Q,UClyLOM2Sfxu7rN5MetSE26Q,UClyLOM2Sfxu7rN5MetSE26Q,UClyLOM2Sfxu7rN5MetSE26Q,UClyLOM2Sfxu7rN5MetSE26Q,UClyLOM2Sfxu7rN5MetSE26Q,UClyLOM2Sfxu7rN5MetSE26Q,UClyLOM2Sfxu7rN5MetSE26Q,UClyLOM2Sfxu7rN5MetSE26Q,UClyLOM2Sfxu7rN5MetSE26Q,UClyLOM2Sfxu7rN5MetSE26Q,UClyLOM2Sfxu7rN5MetSE26Q,UClyLOM2Sfxu7rN5MetSE26Q,UClyLOM2Sfxu7rN5MetSE26Q,UClyLOM2Sfxu7rN5MetSE26Q,UClyLOM2Sfxu7rN5MetSE26Q,UClyLOM2Sfxu7rN5MetSE26Q,UClyLOM2Sfxu7rN5MetSE26Q,UClyLOM2Sfxu7rN5MetSE26Q,UClyLOM2Sfxu7rN5MetSE26Q,UClyLOM2Sfxu7rN5MetSE26Q,UClyLOM2Sfxu7rN5MetSE26Q,UClyLOM2Sfxu7rN5MetSE26Q,UClyLOM2Sfxu7rN5MetSE26Q,UClyLOM2Sfxu7rN5MetSE26Q,UClyLOM2Sfxu7rN5MetSE26Q,UClyLOM2Sfxu7rN5MetSE26Q,UClyLOM2Sfxu7rN5MetSE26Q,UClyLOM2Sfxu7rN5MetSE26Q,UClyLOM2Sfxu7rN5MetSE26Q,UClyLOM2Sfxu7rN5MetSE26Q,UClyLOM2Sfxu7rN5MetSE26Q,UClyLOM2Sfxu7rN5MetSE26Q,UClyLOM2Sfxu7rN5MetSE26Q,UClyLOM2Sfxu7rN5MetSE26Q,UClyLOM2Sfxu7rN5MetSE26Q,UClyLOM2Sfxu7rN5MetSE26Q]"
7357,Qinhuangdao,[],Hebei,China,CHN,Asia,39.9395724,119.5894129,0.0,759718,1408280000.0,17.4,96.74,170.0,39.8,38.5,0.0,[HGZ1Yr9r_Eg],[[0]],[[20]],[[1571]],[3],[11042025],[UClyLOM2Sfxu7rN5MetSE26Q]
7358,Tangshan,[],Hebei,China,CHN,Asia,39.6295951,118.1738712,0.0,3372102,1408280000.0,17.4,96.74,170.0,39.8,38.5,0.0,"[NaRkNeYVNoo,b3nz-NU-xDU,KAjpzd75CfM,KFejg-Wivwk,lVDVdr5HRhQ]","[[0],[0],[0],[0],[0]]","[[38],[20],[20],[20],[20]]","[[3693],[816],[1113],[800],[2981]]","[3,3,3,3,3]","[9042025,8042025,5042025,4042025,3042025]","[UClyLOM2Sfxu7rN5MetSE26Q,UClyLOM2Sfxu7rN5MetSE26Q,UClyLOM2Sfxu7rN5MetSE26Q,UClyLOM2Sfxu7rN5MetSE26Q,UClyLOM2Sfxu7rN5MetSE26Q]"
7359,Dezhou,[],Shandong,China,CHN,Asia,37.4363704,116.3534091,0.0,679535,1408280000.0,17.4,96.74,170.0,39.8,38.5,0.0,[SHZKg7Eg1xM],[[0]],[[20]],[[3074]],[3],[27032025],[UClyLOM2Sfxu7rN5MetSE26Q]
7360,Linyi,[],Shandong,China,CHN,Asia,35.1032403,118.3506988,0.0,2743843,1408280000.0,17.4,96.74,170.0,39.8,38.5,0.0,"[Q0KFdMkaf0M,iUzFQqWLMAU,E5G0m5Wk_m0,a-MFSTYyzA0,szJiWxC8g3k,qSgbqWRUaBA]","[[0],[0],[0],[0],[0],[0]]","[[0],[0],[0],[0],[124],[0]]","[[1359],[1397],[1048],[1267],[2960],[779]]","[3,3,3,3,3,3]","[20102024,19102024,17102024,15102024,14102024,25102023]","[UClyLOM2Sfxu7rN5MetSE26Q,UClyLOM2Sfxu7rN5MetSE26Q,UClyLOM2Sfxu7rN5MetSE26Q,UClyLOM2Sfxu7rN5MetSE26Q,UClyLOM2Sfxu7rN5MetSE26Q,UClyLOM2Sfxu7rN5MetSE26Q]"
7361,Al-Yadudah,[],,Syria,SYR,Asia,32.67402,36.05458,0.0,8967,25620000.0,14.9,94.42,166.0,25.0,37.5,0.0,[2LvurLzaRM4],[[0]],[[32]],[[778]],[0],[10122025],[UCtWlixFWbszlvwfzHaTcWgw]
7362,Zarqa,[],,Jordan,JOR,Asia,32.0668425,36.0885771,0.0,792665,11734000.0,17.0,94.44,167.0,24.6,33.7,0.0,"[asubA7Rjwlk,RdS-km8nsE0,p3VxP8xdswg,QZ-i35BIqMM,LNyE3yxdoFU,-ajojVNQ3wo]","[[0],[0],[0,0,0],[0],[0],[0]]","[[6],[0],[8,600,1178],[0],[0],[0]]","[[1370],[717],[595,1166,2171],[253],[3035],[760]]","[0,0,0,0,0,0]","[17012026,24072024,1012026,5022026,30012026,25022026]","[UCyXetyN43fvJFTiicLOq12w,UCQMwV8UAhW5eBGLN29mEijg,UC0euVqG7nEbd5D8alkwfTgw,UC0euVqG7nEbd5D8alkwfTgw,UC0euVqG7nEbd5D8alkwfTgw,UC0euVqG7nEbd5D8alkwfTgw]"
7363,Jining,[],Shandong,China,CHN,Asia,35.4125047,116.5849266,0.0,1241012,1408280000.0,17.4,96.74,170.0,39.8,38.5,0.0,[Bw5vHbnoK14],[[0]],[[3528]],[[4767]],[3],[26102023],[UClyLOM2Sfxu7rN5MetSE26Q]
7364,Peyia,[Pegeia],,Cyprus,CYP,Europe,34.8835052,32.3803202,0.0,2462,1442614.0,5.8,98.68,167.0,39.1,32.7,0.0,"[6ymfEQsOe2A,txiK5r52c-M,qt4gepEhmPs,IefDwzhHh0U,S1YMD-isGL0,SvlGNaVTOoU,6dz6zcrJLeI,UVRFMbvf1Ko,TH1z1xalCbE]","[[0],[0],[0],[0],[0],[0],[0],[0],[0]]","[[0],[0],[0],[0],[0],[1001],[0],[0],[0]]","[[357],[905],[1084],[1688],[1205],[1274],[278],[714],[380]]","[0,0,0,0,0,0,0,0,0]","[28032026,27032026,1012026,31122025,19112025,8022025,8022025,9012023,27012024]","[UCFK5W0H9YuKyogLy0-dIA-g,UCFK5W0H9YuKyogLy0-dIA-g,UCFK5W0H9YuKyogLy0-dIA-g,UCFK5W0H9YuKyogLy0-dIA-g,UCFK5W0H9YuKyogLy0-dIA-g,UCFK5W0H9YuKyogLy0-dIA-g,UCFK5W0H9YuKyogLy0-dIA-g,UCFK5W0H9YuKyogLy0-dIA-g,UCFK5W0H9YuKyogLy0-dIA-g]"
7365,Alampra,[],,Cyprus,CYP,Europe,34.9893681,33.3991135,0.0,1655,1442614.0,5.8,98.68,167.0,39.1,32.7,0.0,[BmpnmVOTDBo],[[0]],[[896]],[[1095]],[0],[28012026],[UCFK5W0H9YuKyogLy0-dIA-g]
7366,Athienou,[],,Cyprus,CYP,Europe,35.0618614,33.5404951,0.0,5202,1442614.0,5.8,98.68,167.0,39.1,32.7,0.0,[H62wo_7i5J0],[[0]],[[370]],[[1361]],[0],[25122025],[UCFK5W0H9YuKyogLy0-dIA-g]
7367,Zhuzhou,[],Hunan,China,CHN,Asia,27.828146,113.130358,0.0,1129687,1408280000.0,17.4,96.74,170.0,39.8,38.5,0.0,"[OtSaHcv3kK4,LnPejMD26c4,UO26pqYKj8M,WKom892ypVs,fmskcIwOjGg,g3_Q6Msy5J4]","[[0],[0],[0],[0,0],[0,0],[0]]","[[0],[0],[0],[0,1172],[0,1738],[0]]","[[1134],[1164],[1502],[1065,1442],[1735,1798],[578]]","[0,0,0,0,0,0]","[17092025,17092025,17092025,12082025,12082025,10082025]","[UCFK5W0H9YuKyogLy0-dIA-g,UCFK5W0H9YuKyogLy0-dIA-g,UCFK5W0H9YuKyogLy0-dIA-g,UCFK5W0H9YuKyogLy0-dIA-g,UCFK5W0H9YuKyogLy0-dIA-g,UCFK5W0H9YuKyogLy0-dIA-g]"
7368,De'an,[],Jiangxi,China,CHN,Asia,29.326815,115.767405,0.0,166000,1408280000.0,17.4,96.74,170.0,39.8,38.5,0.0,"[j9H9bfoaczM,OR1XeBN7tsM]","[[0],[0]]","[[0],[0]]","[[1448],[1301]]","[0,0]","[15082025,15082025]","[UCFK5W0H9YuKyogLy0-dIA-g,UCFK5W0H9YuKyogLy0-dIA-g]"
7369,Skarinou,[],,Cyprus,CYP,Europe,34.8213895,33.3571675,0.0,403,1442614.0,5.8,98.68,167.0,39.1,32.7,0.0,[FKomVEB82Ng],[[0]],[[197]],[[708]],[0],[31032025],[UCFK5W0H9YuKyogLy0-dIA-g]
7370,Argaka,[],,Cyprus,CYP,Europe,35.0652434,32.4929344,0.0,1078,1442614.0,5.8,98.68,167.0,39.1,32.7,0.0,[EX8wMikKZB4],[[0]],[[0]],[[1675]],[0],[28012024],[UCFK5W0H9YuKyogLy0-dIA-g]
7371,Kyperounta,[],,Cyprus,CYP,Europe,34.9411917,32.9742528,0.0,1578,1442614.0,5.8,98.68,167.0,39.1,32.7,0.0,[n5yZL1D66Y4],[[0]],[[91]],[[624]],[0],[2092024],[UCFK5W0H9YuKyogLy0-dIA-g]
7372,Songzi,[],Hubei,China,CHN,Asia,30.1750972,111.7512714,0.0,650000,1408280000.0,17.4,96.74,170.0,39.8,38.5,0.0,"[djyhIblqBqs,BGDVF2ht2sM]","[[1],[0]]","[[0],[0]]","[[4709],[4421]]","[0,0]","[19012024,10122023]","[UC1iNiUhquM2_2QARSnBQPXg,UC1iNiUhquM2_2QARSnBQPXg]"
7373,Medina,[],,Saudi Arabia,SAU,Asia,24.471153,39.6111216,0.0,1300000,35300280.0,35.9,97.93,165.0,32.4,0.0,4.44,[zuCMEu7G9A0],[[0]],[[0]],[[149]],[0],[14092022],[UCqg2lghFp6r8d51sRRV-czQ]
7374,Sa Pa,[],,Vietnam,VNM,Asia,22.33531,103.842432,0.0,42095,101343800.0,30.6,96.13,164.0,32.5,35.7,0.0,[EHMcQICGcuc],"[[0,0]]","[[0,481]]","[[63,597]]",[3],[10042023],[UCBBKed4Xg6xpJHJJQhs06lg]
7375,Mỏ Cày,[Mo Cay],,Vietnam,VNM,Asia,10.1301335,106.3344463,0.0,143577,101343800.0,30.6,96.13,164.0,32.5,35.7,0.0,"[UUro7sK2G24,q4WcncxIYIQ]","[[0],[0]]","[[15],[33]]","[[1535],[2472]]","[3,3]","[11042026,27022026]","[UCY3cXZ7eoQ09mmQXNecl92g,UCY3cXZ7eoQ09mmQXNecl92g]"
7376,An Thi,[Ân Thi],,Vietnam,VNM,Asia,20.815976,106.088442,0.0,135075,101343800.0,30.6,96.13,164.0,32.5,35.7,17.78,[ze_cp4ZUklw],[[0]],[[1554]],[[2337]],[0],[1042026],[UCcROxwq_GajcurqLI7zGFfw]
7377,Abu Alandah,[],,Jordan,JOR,Asia,31.90306,35.96264,0.0,370598,11734000.0,17.0,94.44,167.0,24.6,33.7,0.0,[66SCNTAoYv4],[[0]],[[0]],[[697]],[0],[13032020],[UC9TPFnvt8eZ6Y9sw-4uODiw]
7378,Van Don,[Vân Đồn],,Vietnam,VNM,Asia,21.0180885,107.5108313,0.0,46616,101343800.0,30.6,96.13,164.0,32.5,35.7,0.0,[az9D5jrduPQ],"[[0,0,1]]","[[0,735,1481]]","[[453,1480,3046]]",[0],[25032026],[UCcROxwq_GajcurqLI7zGFfw]
7379,Nam Dinh,[Nam Định],,Vietnam,VNM,Asia,20.414143,106.177112,0.0,448225,101343800.0,30.6,96.13,164.0,32.5,35.7,0.0,[2d_oD2Nd4Q8],[[0]],[[0]],[[2114]],[0],[24032026],[UCcROxwq_GajcurqLI7zGFfw]
7380,Ca Mau,[Cà Mau],,Vietnam,VNM,Asia,9.175991,105.150836,0.0,111894,101343800.0,30.6,96.13,164.0,32.5,35.7,0.0,"[2PtqUYgboys,dDsVXxYs-oo,HaaXsXl7gyI,KnvPMblJf2Q,zIE1n-tLBcs]","[[0],[0],[0],[1],[0]]","[[0],[0],[0],[0],[0]]","[[1730],[2369],[2178],[4131],[3490]]","[0,0,0,0,0]","[11032026,19012026,8012026,1012026,31122025]","[UCcROxwq_GajcurqLI7zGFfw,UCcROxwq_GajcurqLI7zGFfw,UCcROxwq_GajcurqLI7zGFfw,UCcROxwq_GajcurqLI7zGFfw,UCcROxwq_GajcurqLI7zGFfw]"
7381,Ninh Binh,[Ninh Bình],,Vietnam,VNM,Asia,20.2421142,105.9746207,0.0,36864,101343800.0,30.6,96.13,164.0,32.5,35.7,0.0,"[is3CmTQONpY,16AGEGgP6ic,eshytuIGMpE]","[[0],[0],[0]]","[[0],[0],[0]]","[[1281],[460],[1217]]","[0,0,0]","[10032026,10022026,9022026]","[UCcROxwq_GajcurqLI7zGFfw,UCcROxwq_GajcurqLI7zGFfw,UCcROxwq_GajcurqLI7zGFfw]"
7382,Bac Giang,[Bắc Giang],,Vietnam,VNM,Asia,21.277858,106.197745,0.0,450000,101343800.0,30.6,96.13,164.0,32.5,35.7,0.0,"[wh1RWv5Km1s,3Byc4SbMf04]","[[0,0,0],[0,0]]","[[0,652,1244],[0,594]]","[[15,805,1320],[291,1140]]","[0,0]","[7032026,3032026]","[UCcROxwq_GajcurqLI7zGFfw,UCcROxwq_GajcurqLI7zGFfw]"
7383,Tam Ky,[],,Vietnam,VNM,Asia,15.563183,108.48208,0.0,165240,101343800.0,30.6,96.13,164.0,32.5,35.7,0.0,"[PDj403KSpKM,_GC_qnVbK30,9E2mniOCSm4,3tpThwh3dVc,qqzIuNGhCLs,ooXFz_sCAmU,sENT4Kcn2Eo,5n6We6cYjs4,Hxog6tztrYs,1J8GWN4WKU0,az_aQSejjmg]","[[0],[0],[0],[0],[0],[0],[0],[0],[0],[0,0],[0]]","[[0],[0],[0],[0],[0],[0],[553],[0],[0],[0,3769],[214]]","[[2821],[501],[547],[551],[837],[1010],[914],[1599],[2506],[3764,6618],[1815]]","[0,0,0,0,0,0,0,0,0,0,0]","[5032026,4052019,4052019,4052019,4052019,4052019,31102020,5062022,10062022,6012026,14032026]","[UCcROxwq_GajcurqLI7zGFfw,UCcROxwq_GajcurqLI7zGFfw,UCcROxwq_GajcurqLI7zGFfw,UCcROxwq_GajcurqLI7zGFfw,UCcROxwq_GajcurqLI7zGFfw,UCcROxwq_GajcurqLI7zGFfw,UCcROxwq_GajcurqLI7zGFfw,UCcROxwq_GajcurqLI7zGFfw,UCcROxwq_GajcurqLI7zGFfw,UCcROxwq_GajcurqLI7zGFfw,UCcROxwq_GajcurqLI7zGFfw]"
7384,Hai Tien,[],,Vietnam,VNM,Asia,20.118315,106.2943507,0.0,1800,101343800.0,30.6,96.13,164.0,32.5,35.7,0.0,[ZYMDciTfUA4],[[0]],[[0]],[[2012]],[0],[3032026],[UCcROxwq_GajcurqLI7zGFfw]
7385,Phat Diem,[Phát Diệm],,Vietnam,VNM,Asia,20.0896318,106.0809025,0.0,9561,101343800.0,30.6,96.13,164.0,32.5,35.7,0.0,"[CYwhIL0vQ8k,ZVuy01Yz7Ns,kW09tP1h-0w,QVlaaKyz9y4]","[[0],[0],[1],[0,0]]","[[0],[0],[0],[0,1172]]","[[672],[1027],[1672],[1165,2761]]","[0,0,0,0]","[25022026,25022026,25022026,25022026]","[UCcROxwq_GajcurqLI7zGFfw,UCcROxwq_GajcurqLI7zGFfw,UCcROxwq_GajcurqLI7zGFfw,UCcROxwq_GajcurqLI7zGFfw]"
7386,Mo Trang,[Mỏ Trạng],,Vietnam,VNM,Asia,21.529258,106.107974,0.0,5271,101343800.0,30.6,96.13,164.0,32.5,35.7,0.0,[Hg6Irm7gIbE],[[0]],[[59]],[[1140]],[0],[17012026],[UCcROxwq_GajcurqLI7zGFfw]
7387,Quy Nhon,[],,Vietnam,VNM,Asia,13.768731,109.230926,0.0,519208,101343800.0,30.6,96.13,164.0,32.5,35.7,0.0,[oczRfN58r8I],[[0]],[[0]],[[2043]],[0],[29122025],[UCcROxwq_GajcurqLI7zGFfw]
7388,Al-Baqaa,[],,Jordan,JOR,Asia,30.477208,35.520716,0.0,58592,11734000.0,17.0,94.44,167.0,24.6,33.7,0.0,[ltb5dqSiMHE],[[0]],[[0]],[[1616]],[0],[14032026],[UC0euVqG7nEbd5D8alkwfTgw]
7389,Kufranjah,[],,Jordan,JOR,Asia,32.2971156,35.7048916,0.0,0,11734000.0,17.0,94.44,167.0,24.6,33.7,0.0,[0k5pUpoIGnI],[[0]],[[30]],[[2462]],[0],[30122025],[UC0euVqG7nEbd5D8alkwfTgw]



